 Time ,Vertical velocity ,Vertical acceleration ,Lateral velocity (m/s),Lateral acceleration ,Roll rate ,Pitch rate ,Yaw rate ,Mass (g),Rotational moment of inertia ,CP location (cm),CG location (cm),Thrust ,Drag force ,Axial drag coefficient ,Air pressure (mbar)
0.002,-0.00612,-3.06064,0,0,0,0,0,817.04973,0.00036,0,49.61964,5.5,0,2.76513,1013.25
0.004,0.0208,10.40312,0,0,0,0,0,817.02167,0.00036,0,49.61891,16.5,0,2.1311,1013.25
0.006,0.06854,23.86781,0,0,0,0,0,816.9936,0.00036,0,49.61818,27.5,0.00001,1.43693,1013.24999
0.008,0.1432,37.33339,0,0,0,0,0,816.96554,0.00036,0,49.61745,38.5,0.00003,1.3839,1013.24996
0.01,0.2448,50.79986,0,0,0,0,0,816.93747,0.00036,0,49.61672,49.5,0.00009,1.2569,1013.24992
0.012,0.38754,71.37565,0,0,0,0,0,816.82369,0.00036,0,49.61375,66.3,0.0002,1.10466,1013.24984
0.014,0.58564,99.0587,0,0,0,0,0,816.7099,0.00036,0,49.61079,88.9,0.00041,0.99491,1013.24973
0.016,0.83912,126.74928,0,0,0,0,0,816.59612,0.00036,0,49.60782,111.5,0.00077,0.91518,1013.24956
0.018,1.148,154.44732,0,0,0,0,0,816.48233,0.00036,0,49.60485,134.1,0.00136,0.85533,1013.24933
0.02,1.51228,182.15272,0,0,0,0,0,816.36855,0.00036,0,49.60189,156.7,0.00222,0.80887,1013.24902
0.022,1.90161,194.68721,0,0,0,0,0,816.20272,0.00036,0,49.59756,166.9,0.00337,0.77401,1013.24862
0.024,2.28563,192.03117,0,0,0,0,0,816.03689,0.00036,0,49.59323,164.7,0.0047,0.74822,1013.24812
0.026,2.66434,189.37383,0,0,0,0,0,815.87106,0.00036,0,49.5889,162.5,0.00622,0.72807,1013.24754
0.028,3.03774,186.71521,0,0,0,0,0,815.70523,0.00036,0,49.58457,160.3,0.0079,0.71173,1013.24688
0.03,3.40581,184.05531,0,0,0,0,0,815.53939,0.00036,0,49.58023,158.1,0.00974,0.69812,1013.24612
0.032,3.76905,181.63703,0,0,0,0,0,815.38377,0.00036,0,49.57616,156.1,0.01173,0.68653,1013.24528
0.034,4.12794,179.46299,0,0,0,0,0,815.22814,0.00036,0,49.57209,154.3,0.01386,0.67649,1013.24435
0.036,4.48248,177.28795,0,0,0,0,0,815.07252,0.00036,0,49.56802,152.5,0.01613,0.66766,1013.24334
0.038,4.83268,175.11191,0,0,0,0,0,814.91689,0.00036,0,49.56395,150.7,0.01853,0.65983,1013.24225
0.04,5.17851,172.9349,0,0,0,0,0,814.76127,0.00036,0,49.55987,148.9,0.02105,0.65282,1013.24108
0.042,5.51656,169.03474,0,0,0,0,0,814.62197,0.00036,0,49.55622,145.7,0.02366,0.64654,1013.23982
0.044,5.84336,163.41431,0,0,0,0,0,814.48267,0.00036,0,49.55257,141.1,0.02632,0.64096,1013.23849
0.046,6.15892,157.79191,0,0,0,0,0,814.34337,0.00036,0,49.54892,136.5,0.02901,0.63595,1013.23708
0.048,6.46323,152.16756,0,0,0,0,0,814.20407,0.00036,0,49.54527,131.9,0.03172,0.63143,1013.2356
0.05,6.75629,146.54128,0,0,0,0,0,814.06478,0.00036,0,49.54161,127.3,0.03444,0.62734,1013.23405
0.052,7.04423,143.98329,0,0,0,0,0,813.93211,0.00035,0,49.53813,125.2,0.03721,0.62356,1013.23243
0.054,7.3332,144.49634,0,0,0,0,0,813.79945,0.00035,0,49.53465,125.6,0.04009,0.61996,1013.23075
0.056,7.6232,145.00941,0,0,0,0,0,813.66678,0.00035,0,49.53117,126,0.04309,0.61653,1013.22899
0.058,7.91422,145.52252,0,0,0,0,0,813.53412,0.00035,0,49.52768,126.4,0.04619,0.61326,1013.22717
0.06,8.20627,146.03566,0,0,0,0,0,813.40145,0.00035,0,49.5242,126.8,0.04941,0.61014,1013.22528
0.062,8.49935,146.54882,0,0,0,0,0,813.26879,0.00035,0,49.52071,127.2,0.05275,0.60716,1013.22332
0.064,8.79345,147.06201,0,0,0,0,0,813.13613,0.00035,0,49.51722,127.6,0.05619,0.6043,1013.22129
0.066,9.08858,147.57523,0,0,0,0,0,813.00346,0.00035,0,49.51373,128,0.05976,0.60155,1013.21919
0.068,9.38474,148.08847,0,0,0,0,0,812.8708,0.00035,0,49.51024,128.4,0.06344,0.59892,1013.21703
0.07,9.68192,148.60173,0,0,0,0,0,812.73813,0.00035,0,49.50675,128.8,0.06723,0.59638,1013.21479
0.072,9.98013,149.11502,0,0,0,0,0,812.60547,0.00035,0,49.50326,129.2,0.07114,0.59394,1013.21249
0.074,10.27936,149.62833,0,0,0,0,0,812.4728,0.00035,0,49.49976,129.6,0.07517,0.59158,1013.21011
0.076,10.57963,150.14166,0,0,0,0,0,812.34014,0.00035,0,49.49627,130,0.07932,0.58931,1013.20766
0.078,10.88092,150.65501,0,0,0,0,0,812.20747,0.00035,0,49.49277,130.4,0.08359,0.58711,1013.20515
0.08,11.18323,151.16838,0,0,0,0,0,812.07481,0.00035,0,49.48928,130.8,0.08798,0.58499,1013.20256
0.082,11.48657,151.68177,0,0,0,0,0,811.94214,0.00035,0,49.48578,131.2,0.0925,0.58294,1013.1999
0.084,11.79094,152.19518,0,0,0,0,0,811.80948,0.00035,0,49.48228,131.6,0.09713,0.58095,1013.19717
0.086,12.09634,152.70822,0,0,0,0,0,811.67682,0.00035,0,49.47878,132,0.1022,0.58079,1013.19437
0.088,12.40276,153.22121,0,0,0,0,0,811.54415,0.00035,0,49.47528,132.4,0.10744,0.58076,1013.19149
0.09,12.71021,153.7342,0,0,0,0,0,811.41149,0.00035,0,49.47177,132.8,0.11282,0.58074,1013.18855
0.092,13.01868,154.24716,0,0,0,0,0,811.27882,0.00035,0,49.46827,133.2,0.11836,0.58072,1013.18553
0.094,13.32819,154.7601,0,0,0,0,0,811.14616,0.00035,0,49.46476,133.6,0.12405,0.5807,1013.18244
0.096,13.63871,155.27302,0,0,0,0,0,811.01349,0.00035,0,49.46126,134,0.1299,0.58068,1013.17928
0.098,13.95026,155.78592,0,0,0,0,0,810.88083,0.00035,0,49.45775,134.4,0.13589,0.58067,1013.17604
0.1,14.26284,156.2988,0,0,0,0,0,810.74816,0.00035,0,49.45424,134.8,0.14205,0.58065,1013.17273
0.102,14.5761,156.64062,0,0,0,0,0,810.60734,0.00035,0,49.45052,135.06,0.14835,0.58064,1013.16935
0.104,14.8897,156.80965,0,0,0,0,0,810.46651,0.00035,0,49.44679,135.18,0.1548,0.58063,1013.1659
0.106,15.20364,156.97855,0,0,0,0,0,810.32568,0.00035,0,49.44306,135.3,0.1614,0.58062,1013.16237
0.108,15.51791,157.14734,0,0,0,0,0,810.18485,0.00035,0,49.43933,135.42,0.16813,0.58061,1013.15876
0.11,15.83252,157.316,0,0,0,0,0,810.04402,0.00035,0,49.4356,135.54,0.17502,0.5806,1013.15509
0.112,16.14747,157.48455,0,0,0,0,0,809.90319,0.00035,0,49.43187,135.66,0.18205,0.5806,1013.15134
0.114,16.46276,157.65297,0,0,0,0,0,809.76236,0.00035,0,49.42813,135.78,0.18922,0.58059,1013.14751
0.116,16.77838,157.82127,0,0,0,0,0,809.62154,0.00035,0,49.4244,135.9,0.19655,0.58059,1013.14361
0.118,17.09434,157.98944,0,0,0,0,0,809.48071,0.00035,0,49.42066,136.02,0.20402,0.58059,1013.13964
0.12,17.41063,158.15749,0,0,0,0,0,809.33988,0.00035,0,49.41692,136.14,0.21164,0.58059,1013.13559
0.122,17.72726,158.32542,0,0,0,0,0,809.19905,0.00035,0,49.41319,136.26,0.2194,0.58059,1013.13147
0.125,18.20282,158.53999,0.00001,0.00233,0,0,0,808.98781,0.00035,62.61711,49.40757,136.41,0.23133,0.58059,1013.12515
0.1295,18.91756,158.86127,0.00002,0.00243,0,0,0,808.67094,0.00035,62.61757,49.39915,136.635,0.24986,0.5806,1013.11535
0.13625,19.99281,159.3419,0.00003,0.00257,0,0,0,808.19565,0.00035,62.61829,49.38651,136.9725,0.27908,0.58062,1013.09995
0.14625,21.5927,160.05413,0.00006,0.00279,0,0,0,807.4915,0.00035,62.61944,49.36775,137.475,0.32555,0.58067,1013.07557
0.15625,23.20111,160.88366,0.00009,0.00301,0,0,0,806.78736,0.00035,62.6207,49.34896,138.075,0.37589,0.58074,1013.0493
0.16625,24.8178,161.70978,0.00012,0.00312,0,0,0,806.08322,0.00035,62.62206,49.33013,138.675,0.43016,0.58082,1013.02114
0.17625,26.44274,162.53238,0.00015,0.00331,0,0,0,805.37908,0.00035,62.62352,49.31127,139.275,0.48841,0.58093,1012.99108
0.18625,28.07588,163.3514,0.00019,0.0035,0,0,0,804.67493,0.00035,62.62509,49.29238,139.875,0.55071,0.58106,1012.95911
0.19625,29.71721,164.16675,0.00022,0.00368,0,0,0,803.97079,0.00035,62.62677,49.27346,140.475,0.61711,0.5812,1012.92522
0.20625,31.36546,164.85925,0.00026,0.00386,0,0,0,803.25549,0.00035,62.62855,49.2542,140.97734,0.68763,0.58136,1012.8894
0.21625,33.01606,165.09198,0.0003,0.00404,0,0,0,802.53349,0.00035,62.63043,49.23472,141.1125,0.76211,0.58153,1012.85164
0.22625,34.66853,165.27635,0.00034,0.00422,0,0,0,801.81149,0.00035,62.63241,49.21521,141.2125,0.84055,0.58171,1012.81195
0.23625,36.32282,165.45608,0.00038,0.00439,0,0,0,801.08948,0.00035,62.6345,49.19567,141.3125,0.92298,0.58192,1012.77032
0.24625,37.97888,165.63114,0.00043,0.00456,0,0,0,800.36748,0.00035,62.63669,49.17609,141.4125,1.0094,0.58213,1012.72675
0.25625,39.63668,165.80148,0.00048,0.00472,0,0,0,799.64548,0.00035,62.63898,49.15648,141.5125,1.09983,0.58236,1012.68124
0.26625,41.29615,165.96709,0.00052,0.00488,0,0,0,798.92348,0.00035,62.64138,49.13683,141.6125,1.19431,0.5826,1012.63378
0.27625,42.95725,166.12791,0.00057,0.00504,0,0,0,798.20148,0.00035,62.64388,49.11714,141.7125,1.29284,0.58286,1012.58437
0.28625,44.61994,166.28392,0.00062,0.00519,0,0,0,797.47948,0.00035,62.64648,49.09742,141.8125,1.39544,0.58313,1012.53301
0.29625,46.28417,166.43507,0.00068,0.0056,0,0,0,796.75748,0.00035,62.64923,49.07766,141.9125,1.50214,0.58341,1012.4797
0.30625,47.94939,166.53229,0.00073,0.00608,0,0,0,796.03548,0.00035,62.6521,49.05787,141.97344,1.61292,0.58371,1012.42444
0.31625,49.61372,166.44003,0.0008,0.00661,0,0,0,795.31347,0.00035,62.65507,49.03804,141.8875,1.72766,0.58402,1012.36723
0.32625,51.27692,166.32493,0.00086,0.00718,0,0,0,794.59147,0.00035,62.65814,49.01818,141.7875,1.84636,0.58434,1012.30807
0.33625,52.93894,166.20464,0.00094,0.00778,0,0,0,793.86947,0.00035,62.66131,48.99828,141.6875,1.96902,0.58467,1012.24695
0.34625,54.59973,166.07914,0.00102,0.00849,0,0,0,793.14747,0.00035,62.6646,48.97834,141.5875,2.09563,0.58501,1012.18389
0.35625,56.25925,165.94842,0.00111,0.00924,0,0,0,792.42547,0.00035,62.66799,48.95837,141.4875,2.2262,0.58537,1012.11888
0.36625,57.91742,165.81246,0.0012,0.01,0,0,0,791.70347,0.00035,62.67148,48.93836,141.3875,2.36072,0.58574,1012.05193
0.37625,59.57422,165.67125,0.00131,0.01071,0,0,0,790.98147,0.00035,62.67505,48.91831,141.2875,2.4992,0.58612,1011.98303
0.38625,61.22957,165.52478,0.00142,0.01148,0,0,0,790.25947,0.00035,62.67873,48.89823,141.1875,2.64164,0.58651,1011.91219
0.39625,62.88343,165.37304,0.00154,0.01235,0,0,0,789.53746,0.00035,62.68251,48.87811,141.0875,2.78803,0.58692,1011.8394
0.40625,64.53499,165.13862,0.00167,0.01308,0,0,0,788.82981,0.00035,62.68631,48.85835,140.92891,2.93831,0.58733,1011.76468
0.41625,66.18138,164.61776,0.0018,0.01381,0,0,0,788.13077,0.00035,62.69019,48.8388,140.55,3.0922,0.58776,1011.68803
0.42625,67.82226,164.06466,0.00194,0.01449,0,0,0,787.43173,0.00035,62.69417,48.81922,140.15,3.24964,0.5882,1011.60945
0.43625,69.45757,163.5061,0.00209,0.01514,0,0,0,786.73269,0.00035,62.69823,48.7996,139.75,3.41061,0.58864,1011.52895
0.44625,71.08728,162.9421,0.00224,0.01569,0,0,0,786.03365,0.00035,62.7024,48.77994,139.35,3.57508,0.5891,1011.44653
0.45625,72.71131,162.37268,0.0024,0.01636,0,0,0,785.33461,0.00035,62.70664,48.76025,138.95,3.74301,0.58957,1011.3622
0.46625,74.32962,161.79787,0.00257,0.01679,0,0,0,784.63557,0.00035,62.711,48.74053,138.55,3.91438,0.59005,1011.27597
0.47625,75.94215,161.2177,0.00274,0.01736,0,0,0,783.93653,0.00035,62.71542,48.72077,138.15,4.08915,0.59053,1011.18785
0.48625,77.54886,160.63218,0.00291,0.01783,0,0,0,783.23749,0.00035,62.71994,48.70097,137.75,4.2673,0.59103,1011.09784
0.49625,79.14968,160.04135,0.00309,0.01833,0,0,0,782.53845,0.00035,62.72454,48.68114,137.35,4.44878,0.59154,1011.00595
0.50625,80.74456,159.44524,0.00327,0.01878,0,0,0,781.83941,0.00035,62.72922,48.66128,136.95,4.63357,0.59205,1010.91219
0.51625,82.33345,158.84386,0.00346,0.0194,0,0,0,781.14037,0.00035,62.73396,48.64138,136.55,4.82163,0.59258,1010.81656
0.52625,83.9163,158.23726,0.00366,0.01961,0,0,0,780.44133,0.00035,62.73883,48.62144,136.15,5.01293,0.59311,1010.71906
0.53625,85.49305,157.62545,0.00385,0.01967,0,0,0,779.74229,0.00035,62.7438,48.60147,135.75,5.20745,0.59366,1010.61972
0.54625,87.06366,157.00847,0.00405,0.01965,0,0,0,779.04325,0.00035,62.74884,48.58146,135.35,5.40513,0.59421,1010.51853
0.55625,88.62807,156.38635,0.00424,0.01962,0,0,0,778.34421,0.00035,62.75396,48.56141,134.95,5.60596,0.59477,1010.4155
0.56625,90.18624,155.75911,0.00444,0.0197,0,0,0,777.64517,0.00035,62.75913,48.54133,134.55,5.8099,0.59534,1010.31064
0.57625,91.7381,155.1268,0.00464,0.01953,0,0,0,776.94613,0.00035,62.76431,48.52122,134.15,6.0169,0.59592,1010.20396
0.58625,93.28361,154.48943,0.00483,0.01948,0,0,0,776.24709,0.00035,62.76956,48.50106,133.75,6.22694,0.59651,1010.09546
0.59625,94.82272,153.84704,0.00503,0.01941,0,0,0,775.54805,0.00035,62.77489,48.48087,133.35,6.43999,0.59711,1009.98515
0.60625,96.35536,153.19498,0.00522,0.01934,0,0,0,774.87134,0.00035,62.78029,48.46129,132.95,6.65599,0.59771,1009.87304
0.61625,97.88144,152.53519,0.00542,0.01962,0,0,0,774.20801,0.00035,62.78579,48.44207,132.55,6.87492,0.59833,1009.75914
0.62625,99.40089,151.87055,0.00561,0.01999,0,0,0,773.54469,0.00035,62.79137,48.42281,132.15,7.09672,0.59895,1009.64345
0.63625,100.91366,151.20109,0.00581,0.02049,0,0,0,772.88137,0.00035,62.79704,48.40352,131.75,7.32137,0.59958,1009.52598
0.64625,102.41972,150.52685,0.00602,0.02122,0,0,0,772.21805,0.00035,62.80278,48.3842,131.35,7.54883,0.60021,1009.40674
0.65625,103.91901,149.84786,0.00624,0.0222,0,0,0,771.55472,0.00035,62.80863,48.36484,130.95,7.77905,0.60086,1009.28574
0.66625,105.41148,149.16416,0.00646,0.0234,0,0,0,770.8914,0.00035,62.81452,48.34545,130.55,8.01201,0.60151,1009.16298
0.67625,106.89709,148.47579,0.0067,0.02447,0,0,0,770.22808,0.00035,62.82037,48.32602,130.15,8.24765,0.60217,1009.03848
0.68625,108.37579,147.78279,0.00695,0.0253,0,0,0,769.56476,0.00035,62.82628,48.30657,129.75,8.48594,0.60284,1008.91224
0.69625,109.84753,147.0852,0.00721,0.02624,0,0,0,768.90143,0.00035,62.83223,48.28708,129.35,8.72685,0.60351,1008.78427
0.70625,111.31228,146.38306,0.00748,0.02722,0,0,0,768.23811,0.00035,62.83826,48.26755,128.95,8.97032,0.60419,1008.65458
0.71625,112.76998,145.6764,0.00775,0.02795,0,-0.01223,0.00299,767.57479,0.00035,62.84436,48.24799,128.55,9.21633,0.60488,1008.52318
0.72625,114.22058,144.96528,0.00803,0.02835,0,-0.01134,0.00365,766.91146,0.00035,62.85053,48.2284,128.15,9.46483,0.60558,1008.39006
0.73625,115.66405,144.24973,0.00832,0.02841,0,-0.00193,0.00538,766.24814,0.00035,62.8568,48.20877,127.75,9.71577,0.60628,1008.25526
0.74625,117.10035,143.5298,0.0086,0.02844,0,0.00713,0.00944,765.58482,0.00035,62.86317,48.18911,127.35,9.96913,0.60699,1008.11876
0.75625,118.53085,142.94828,0.00888,0.02804,0,0,0,764.92947,0.00035,62.86963,48.16966,127.06068,10.2251,0.60771,1007.98058
0.76625,119.96095,142.90461,0.00915,0.02688,0,0,0,764.2789,0.00035,62.87625,48.15031,127.1875,10.48467,0.60843,1007.84073
0.77625,121.39111,142.90821,0.00942,0.02583,0,0,0,763.62834,0.00035,62.88276,48.13093,127.35417,10.74793,0.60917,1007.69919
0.78625,122.82128,142.90695,0.00967,0.02489,0,0,0,762.97777,0.00035,62.88926,48.11151,127.52083,11.01491,0.60991,1007.55598
0.79625,124.25142,142.90081,0.00991,0.02395,0,-0.02167,-0.00398,762.3272,0.00035,62.89586,48.09206,127.6875,11.2856,0.61067,1007.41109
0.80625,125.68147,142.88975,0.01014,0.02365,0,-0.00781,-0.00007,761.67664,0.00035,62.90259,48.07258,127.85417,11.56003,0.61144,1007.26453
0.81625,127.07605,139.32882,0.01037,0.02317,0,0.01088,0.00041,761.1329,0.00035,62.90926,48.05628,125.33203,11.83126,0.6122,1007.11631
0.82625,128.30221,122.49884,0.01059,0.02298,0,0.01109,-0.00997,760.65327,0.00035,62.91536,48.04187,112.7,12.07253,0.61287,1006.96655
0.83625,129.3474,104.41849,0.01081,0.02306,0,0.01592,-0.01584,760.17364,0.00035,62.9206,48.02745,99.1,12.28019,0.61346,1006.81546
0.84625,130.21184,86.3609,0.01103,0.02339,0,0,0,759.694,0.00035,62.92502,48.01301,85.5,12.45322,0.61394,1006.66325
0.85625,130.89578,68.3272,0.01126,0.02425,0,0,0,759.21437,0.00035,62.92856,47.99855,71.9,12.59078,0.61433,1006.51013
0.86625,131.40543,50.9072,0.01149,0.02404,0,0,0,758.91492,0.00035,62.93112,47.98951,58.75898,12.69345,0.61462,1006.35631
0.87625,131.76367,35.78232,0.01173,0.02412,0,-0.03074,-0.00644,758.72358,0.00035,62.93281,47.98374,47.34375,12.76544,0.61482,1006.20199
0.88625,131.97299,20.90781,0.01196,0.02332,0,-0.02292,0.00011,758.53223,0.00035,62.93381,47.97796,36.09375,12.80696,0.61495,1006.04733
0.89625,132.0337,6.06611,0.01218,0.02238,0,-0.00145,0.00323,758.34089,0.00035,62.93406,47.97217,24.84375,12.81791,0.61498,1005.89251
0.90625,131.96736,-6.62361,0.01239,0.02079,0,0.00684,0.00223,758.24522,0.00035,62.93374,47.96928,15.20508,12.80267,0.61494,1005.7377
0.91625,131.85407,-11.3124,0.01258,0.01952,0,0.00027,-0.01003,758.20695,0.00035,62.93325,47.96812,11.625,12.7778,0.61488,1005.58299
0.92625,131.7016,-15.22599,0.01277,0.01771,0,0.00537,-0.01093,758.16868,0.00035,62.93256,47.96696,8.625,12.7449,0.61479,1005.42843
0.93625,131.51004,-19.12947,0.01293,0.01637,0,0,0,758.13041,0.00035,62.93166,47.96581,5.625,12.70404,0.61469,1005.27408
0.94625,131.27949,-23.02294,0.01309,0.01471,0,0,0,758.09214,0.00035,62.93057,47.96465,2.625,12.6553,0.61456,1005.11998
0.95,131.183,-25.71711,0.01314,0.01414,0,0,0,758.07779,0.00035,62.93009,47.96421,0.5625,12.635,0.6145,1005.06226
0.95562,131.03428,-26.41792,0.01322,0.01368,0,0,0,758.07779,0.00035,62.92935,47.96421,0,12.60377,0.61442,1004.97577
0.96406,130.81164,-26.35637,0.01333,0.01314,0,0,0,758.07779,0.00035,62.92819,47.96421,0,12.55711,0.61429,1004.84621
0.97406,130.54844,-26.28378,0.01346,0.01269,0,-0.01091,-0.01932,758.07779,0.00035,62.92681,47.96421,0,12.50209,0.61415,1004.69294
0.98406,130.28597,-26.21158,0.01359,0.01263,0,-0.0016,-0.01678,758.07779,0.00035,62.92546,47.96421,0,12.44736,0.614,1004.53998
0.99406,130.02421,-26.13977,0.01371,0.01294,0,0.01002,-0.02151,758.07779,0.00035,62.92411,47.96421,0,12.39292,0.61385,1004.38733
1.00406,129.76317,-26.06834,0.01384,0.01333,0,0.00167,-0.01327,758.07779,0.00035,62.92281,47.96421,0,12.33878,0.61371,1004.23499
1.01406,129.50284,-25.99729,0.01397,0.01397,0,0.01447,-0.01957,758.07779,0.00035,62.92153,47.96421,0,12.28492,0.61356,1004.08295
1.02406,129.24322,-25.92663,0.01411,0.01477,0,0.01948,-0.03084,758.07779,0.00035,62.92033,47.96421,0,12.23135,0.61342,1003.93122
1.03406,128.98431,-25.85633,0.01426,0.01585,0,0,0,758.07779,0.00035,62.91913,47.96421,0,12.17807,0.61327,1003.77979
1.04406,128.72609,-25.78641,0.01443,0.01663,0,0,0,758.07779,0.00035,62.91789,47.96421,0,12.12506,0.61313,1003.62867
1.05406,128.46858,-25.71686,0.0146,0.01739,0,-0.02028,-0.01076,758.07779,0.00035,62.91652,47.96421,0,12.07234,0.61299,1003.47784
1.06406,128.21176,-25.64768,0.01477,0.01757,0,-0.01668,-0.00696,758.07779,0.00035,62.9152,47.96421,0,12.0199,0.61285,1003.32732
1.07406,127.95562,-25.57887,0.01494,0.01734,0,-0.01637,-0.01092,758.07779,0.00035,62.9139,47.96421,0,11.96774,0.61271,1003.1771
1.08406,127.70018,-25.51041,0.01511,0.01687,0,-0.00131,-0.01882,758.07779,0.00035,62.91263,47.96421,0,11.91585,0.61257,1003.02718
1.09406,127.44541,-25.44232,0.01527,0.0163,0,0.01381,-0.01866,758.07779,0.00035,62.91143,47.96421,0,11.86423,0.61243,1002.87756
1.10406,127.19133,-25.37458,0.01542,0.01477,0,0.01175,-0.01719,758.07779,0.00035,62.91027,47.96421,0,11.81288,0.61229,1002.72824
1.11406,126.93792,-25.3072,0.01556,0.01357,0,0.0199,-0.02404,758.07779,0.00035,62.90912,47.96421,0,11.7618,0.61215,1002.57921
1.12406,126.68518,-25.24017,0.01569,0.01221,0,0,0,758.07779,0.00035,62.90795,47.96421,0,11.71099,0.61202,1002.43048
1.13406,126.43312,-25.17348,0.01581,0.01165,0,-0.02299,-0.02271,758.07779,0.00035,62.90666,47.96421,0,11.66044,0.61188,1002.28205
1.14406,126.18171,-25.10715,0.01592,0.01157,0,-0.02008,-0.01468,758.07779,0.00035,62.90533,47.96421,0,11.61016,0.61175,1002.13391
1.15406,125.93097,-25.04116,0.01603,0.0117,0,-0.00253,-0.02857,758.07779,0.00035,62.90405,47.96421,0,11.56014,0.61161,1001.98607
1.16406,125.68089,-24.97551,0.01614,0.01261,0,-0.00086,-0.01282,758.07779,0.00035,62.90286,47.96421,0,11.51038,0.61148,1001.83852
1.17406,125.43146,-24.9102,0.01626,0.01316,0,0.01676,-0.02444,758.07779,0.00035,62.90173,47.96421,0,11.46087,0.61134,1001.69126
1.18406,125.18268,-24.84523,0.0164,0.01381,0,0.03019,-0.02777,758.07779,0.00035,62.90067,47.96421,0,11.41162,0.61121,1001.5443
1.19406,124.93456,-24.7806,0.01654,0.01498,0,0,0,758.07779,0.00035,62.8996,47.96421,0,11.36262,0.61108,1001.39763
1.20406,124.68707,-24.71629,0.01669,0.01587,0,0,0,758.07779,0.00035,62.89847,47.96421,0,11.31388,0.61095,1001.25124
1.21406,124.44023,-24.65232,0.01686,0.01733,0,-0.04655,-0.02146,758.07779,0.00035,62.89709,47.96421,0,11.26538,0.61082,1001.10515
1.22406,124.19402,-24.58867,0.01703,0.01834,0,-0.02994,-0.02029,758.07779,0.00035,62.89574,47.96421,0,11.21714,0.61068,1000.95935
1.23406,123.94845,-24.52535,0.01721,0.01867,0,-0.032,-0.00228,758.07779,0.00035,62.89449,47.96421,0,11.16914,0.61056,1000.81383
1.24406,123.70352,-24.46236,0.0174,0.01904,0,-0.01482,0.0022,758.07779,0.00035,62.89327,47.96421,0,11.12138,0.61043,1000.66861
1.25406,123.45921,-24.39968,0.01758,0.0183,0,0.01247,0.00842,758.07779,0.00035,62.89219,47.96421,0,11.07387,0.6103,1000.52367
1.26406,123.21552,-24.33732,0.01775,0.01707,0,0.01881,0.01038,758.07779,0.00035,62.89119,47.96421,0,11.0266,0.61017,1000.37901
1.27406,122.97246,-24.27528,0.01791,0.01587,0,0.0404,0.00961,758.07779,0.00035,62.89025,47.96421,0,10.97958,0.61004,1000.23464
1.28406,122.73001,-24.21355,0.01806,0.01387,0,0,0,758.07779,0.00035,62.88941,47.96421,0,10.93278,0.60992,1000.09056
1.29406,122.48819,-24.15214,0.01819,0.01237,0,0,0,758.07779,0.00035,62.88823,47.96421,0,10.88623,0.60979,999.94676
1.30406,122.24697,-24.09103,0.01831,0.01123,0,-0.03703,-0.01721,758.07779,0.00035,62.88689,47.96421,0,10.83991,0.60966,999.80324
1.31406,122.00637,-24.03023,0.01841,0.01092,0,-0.02334,0.00099,758.07779,0.00035,62.88558,47.96421,0,10.79382,0.60954,999.66001
1.32406,121.76637,-23.96974,0.01851,0.01041,0,-0.00475,0.00059,758.07779,0.00035,62.88434,47.96421,0,10.74797,0.60942,999.51706
1.33406,121.52697,-23.90955,0.0186,0.00996,0,-0.00015,-0.01432,758.07779,0.00035,62.88323,47.96421,0,10.70234,0.60929,999.37439
1.34406,121.28817,-23.84967,0.01869,0.01056,0,0.01339,-0.0102,758.07779,0.00035,62.88222,47.96421,0,10.65695,0.60917,999.232
1.35406,121.04997,-23.79008,0.01879,0.01108,0,0.04276,-0.00577,758.07779,0.00035,62.88125,47.96421,0,10.61178,0.60905,999.08989
1.36406,120.81237,-23.73079,0.0189,0.01185,0,0.05007,-0.00368,758.07779,0.00035,62.8804,47.96421,0,10.56684,0.60892,998.94805
1.37406,120.57536,-23.67179,0.01903,0.01292,0,0,0,758.07779,0.00035,62.87959,47.96421,0,10.52212,0.6088,998.8065
1.38406,120.33893,-23.61309,0.01916,0.01435,0,0,0,758.07779,0.00035,62.87834,47.96421,0,10.47762,0.60868,998.66522
1.39406,120.1031,-23.55468,0.01931,0.01561,0,-0.03329,0.01121,758.07779,0.00035,62.87705,47.96421,0,10.43334,0.60856,998.52422
1.40406,119.86784,-23.49656,0.01947,0.01637,0,-0.03045,0.00277,758.07779,0.00035,62.87587,47.96421,0,10.38928,0.60844,998.3835
1.41406,119.63316,-23.43873,0.01963,0.01691,0,-0.00946,0.01283,758.07779,0.00035,62.87473,47.96421,0,10.34545,0.60832,998.24305
1.42406,119.39906,-23.38118,0.0198,0.01688,0,0.00208,0.01654,758.07779,0.00035,62.87368,47.96421,0,10.30182,0.60821,998.10288
1.43406,119.16554,-23.32392,0.01996,0.01644,0,0.0166,0.02141,758.07779,0.00035,62.87273,47.96421,0,10.25841,0.60809,997.96298
1.44406,118.93258,-23.26694,0.02012,0.01555,0,0.01618,0.02494,758.07779,0.00035,62.87184,47.96421,0,10.21522,0.60797,997.82336
1.45406,118.7002,-23.21023,0.02027,0.01473,0,0,0,758.07779,0.00035,62.87094,47.96421,0,10.17224,0.60785,997.68401
1.46406,118.46838,-23.15381,0.02041,0.01393,0,0,0,758.07779,0.00035,62.8699,47.96421,0,10.12947,0.60774,997.54493
1.47406,118.23712,-23.09766,0.02055,0.01328,0,-0.02993,0.01314,758.07779,0.00035,62.86878,47.96421,0,10.0869,0.60762,997.40612
1.48406,118.00643,-23.04178,0.02067,0.01254,0,-0.01537,0.00648,758.07779,0.00035,62.86757,47.96421,0,10.04455,0.60751,997.26758
1.49406,117.77629,-22.98618,0.02079,0.01196,0,-0.0145,0.01193,758.07779,0.00035,62.86646,47.96421,0,10.0024,0.60739,997.12932
1.50406,117.5467,-22.93085,0.02089,0.01107,0,-0.00527,0.00381,758.07779,0.00035,62.86537,47.96421,0,9.96046,0.60728,996.99132
1.51406,117.31767,-22.87579,0.02099,0.01058,0,0.01413,0.00221,758.07779,0.00035,62.86437,47.96421,0,9.91872,0.60716,996.85359
1.52406,117.08918,-22.82099,0.02109,0.01047,0,0.02446,0.00551,758.07779,0.00035,62.86343,47.96421,0,9.87718,0.60705,996.71613
1.53406,116.86125,-22.76646,0.02119,0.01044,0,0.02691,0.00267,758.07779,0.00035,62.86258,47.96421,0,9.83585,0.60694,996.57894
1.54406,116.63385,-22.7122,0.0213,0.01071,0,0,0,758.07779,0.00035,62.86173,47.96421,0,9.79471,0.60683,996.44201
1.55406,116.407,-22.65819,0.02141,0.01164,0,0,0,758.07779,0.00035,62.8609,47.96421,0,9.75378,0.60672,996.30536
1.56406,116.18069,-22.60445,0.02153,0.01237,0,0,0,758.07779,0.00035,62.85981,47.96421,0,9.71304,0.6066,996.16896
1.57406,115.95491,-22.55096,0.02166,0.01327,0,-0.01815,0.01525,758.07779,0.00035,62.85868,47.96421,0,9.67249,0.60649,996.03283
1.58406,115.72967,-22.49773,0.02179,0.01386,0,-0.02289,0.0242,758.07779,0.00035,62.8576,47.96421,0,9.63214,0.60638,995.89697
1.59406,115.50496,-22.44476,0.02193,0.01451,0,-0.0112,0.01349,758.07779,0.00035,62.85656,47.96421,0,9.59199,0.60627,995.76137
1.60406,115.28077,-22.39204,0.02207,0.01441,0,0.0059,0.01214,758.07779,0.00035,62.85562,47.96421,0,9.55202,0.60617,995.62603
1.61406,115.05712,-22.33957,0.02221,0.01411,0,0.01397,0.02085,758.07779,0.00035,62.85476,47.96421,0,9.51225,0.60606,995.49096
1.62406,114.83398,-22.28735,0.02235,0.0138,0,0,0,758.07779,0.00035,62.85393,47.96421,0,9.47267,0.60595,995.35615
1.63406,114.61137,-22.23538,0.02248,0.01345,0,0,0,758.07779,0.00035,62.85306,47.96421,0,9.43327,0.60584,995.2216
1.64406,114.38927,-22.18365,0.02261,0.01287,0,0,0,758.07779,0.00035,62.8521,47.96421,0,9.39406,0.60573,995.08731
1.65406,114.16769,-22.13217,0.02274,0.01264,0,0,0,758.07779,0.00035,62.85104,47.96421,0,9.35504,0.60563,994.95328
1.66406,113.94663,-22.08094,0.02286,0.01223,0,-0.01313,-0.00339,758.07779,0.00035,62.84995,47.96421,0,9.3162,0.60552,994.81951
1.67406,113.72607,-22.02995,0.02298,0.01199,0,-0.01374,-0.00587,758.07779,0.00035,62.84893,47.96421,0,9.27755,0.60542,994.686
1.68406,113.50603,-21.97919,0.02309,0.01206,0,-0.0059,-0.00934,758.07779,0.00035,62.84793,47.96421,0,9.23908,0.60531,994.55275
1.69406,113.28649,-21.92868,0.02321,0.01216,0,-0.00131,-0.01091,758.07779,0.00035,62.84699,47.96421,0,9.20079,0.60521,994.41975
1.70406,113.06745,-21.87841,0.02332,0.01242,0,0.00352,-0.0204,758.07779,0.00035,62.8461,47.96421,0,9.16268,0.6051,994.28701
1.71406,112.84892,-21.82837,0.02345,0.01278,0,0.01151,-0.02778,758.07779,0.00035,62.84522,47.96421,0,9.12475,0.605,994.15453
1.72406,112.63089,-21.77856,0.02357,0.01298,0,0.01341,-0.03373,758.07779,0.00035,62.84441,47.96421,0,9.08699,0.6049,994.02231
1.73406,112.41335,-21.72899,0.0237,0.01334,0,0,0,758.07779,0.00035,62.84358,47.96421,0,9.04942,0.60479,993.89034
1.74406,112.19631,-21.67965,0.02384,0.01345,0,0,0,758.07779,0.00035,62.84272,47.96421,0,9.01202,0.60469,993.75862
1.75406,111.97976,-21.63054,0.02397,0.01377,0,-0.02662,-0.02238,758.07779,0.00035,62.84174,47.96421,0,8.97479,0.60459,993.62716
1.76406,111.76369,-21.58166,0.02411,0.01386,0,-0.02036,-0.01539,758.07779,0.00035,62.84074,47.96421,0,8.93774,0.60449,993.49596
1.77406,111.54812,-21.53301,0.02424,0.01365,0,-0.01786,0.00083,758.07779,0.00035,62.83978,47.96421,0,8.90086,0.60439,993.365
1.78406,111.33303,-21.48458,0.02438,0.01362,0,-0.0151,0.00156,758.07779,0.00035,62.83884,47.96421,0,8.86415,0.60429,993.2343
1.79406,111.11843,-21.43638,0.02451,0.01346,0,-0.00855,0.00141,758.07779,0.00035,62.83793,47.96421,0,8.82761,0.60419,993.10385
1.80406,110.90431,-21.3884,0.02464,0.01304,0,0.00253,-0.001,758.07779,0.00035,62.83707,47.96421,0,8.79124,0.60409,992.97365
1.81406,110.69066,-21.34064,0.02476,0.01241,0,0.01476,0.00748,758.07779,0.00035,62.83626,47.96421,0,8.75504,0.60399,992.84371
1.82406,110.47749,-21.2931,0.02488,0.01195,0,0,0,758.07779,0.00035,62.83551,47.96421,0,8.719,0.60389,992.71401
1.83406,110.2648,-21.24578,0.02499,0.01134,0,0,0,758.07779,0.00035,62.83477,47.96421,0,8.68313,0.60379,992.58456
1.84406,110.05258,-21.19868,0.0251,0.01083,0,0,0,758.07779,0.00035,62.83393,47.96421,0,8.64743,0.60369,992.45537
1.85406,109.84082,-21.15179,0.02521,0.01064,0,0,0,758.07779,0.00035,62.83293,47.96421,0,8.61189,0.6036,992.32642
1.86406,109.62954,-21.10512,0.02532,0.0105,0,-0.02139,-0.01741,758.07779,0.00035,62.8319,47.96421,0,8.57651,0.6035,992.19772
1.87406,109.41872,-21.05867,0.02542,0.01056,0,-0.00752,-0.00782,758.07779,0.00035,62.83092,47.96421,0,8.5413,0.6034,992.06926
1.88406,109.20836,-21.01242,0.02552,0.01063,0,-0.01056,-0.01476,758.07779,0.00035,62.83003,47.96421,0,8.50624,0.60331,991.94106
1.89406,108.99847,-20.96639,0.02562,0.01067,0,0.00168,-0.01084,758.07779,0.00035,62.82914,47.96421,0,8.47135,0.60321,991.8131
1.90406,108.78904,-20.92056,0.02572,0.01074,0,0.01179,-0.01156,758.07779,0.00035,62.82831,47.96421,0,8.43661,0.60311,991.68538
1.91406,108.58006,-20.87495,0.02583,0.01087,0,0.0136,-0.00396,758.07779,0.00035,62.82754,47.96421,0,8.40203,0.60302,991.55791
1.92406,108.37154,-20.82954,0.02593,0.01085,0,0.02001,-0.0073,758.07779,0.00035,62.82681,47.96421,0,8.36761,0.60292,991.43069
1.93406,108.16347,-20.78434,0.02604,0.01087,0,0,0,758.07779,0.00035,62.82608,47.96421,0,8.33335,0.60283,991.30371
1.94406,107.95585,-20.73934,0.02615,0.01122,0,0,0,758.07779,0.00035,62.8254,47.96421,0,8.29924,0.60274,991.17698
1.95406,107.74868,-20.69455,0.02626,0.01164,0,0,0,758.07779,0.00035,62.82454,47.96421,0,8.26529,0.60264,991.05048
1.96406,107.54196,-20.64996,0.02638,0.01218,0,0,0,758.07779,0.00035,62.82356,47.96421,0,8.23148,0.60255,990.92423
1.97406,107.33568,-20.60556,0.0265,0.01283,0,-0.02669,0.00286,758.07779,0.00035,62.82259,47.96421,0,8.19783,0.60246,990.79823
1.98406,107.12985,-20.56137,0.02663,0.01308,0,-0.01908,0.00001,758.07779,0.00035,62.82169,47.96421,0,8.16434,0.60237,990.67246
1.99406,106.92445,-20.51738,0.02676,0.01319,0,-0.01644,-0.00119,758.07779,0.00035,62.82081,47.96421,0,8.13099,0.60227,990.54693
2.00406,106.7195,-20.47358,0.02689,0.01317,0,-0.01168,0.00788,758.07779,0.00035,62.81994,47.96421,0,8.09779,0.60218,990.42165
2.01406,106.51498,-20.42999,0.02701,0.01306,0,0.0004,0.01174,758.07779,0.00035,62.81912,47.96421,0,8.06474,0.60209,990.29661
2.02406,106.3109,-20.38658,0.02714,0.01268,0,0.00597,0.00288,758.07779,0.00035,62.81835,47.96421,0,8.03184,0.602,990.1718
2.03406,106.10725,-20.34337,0.02726,0.01212,0,0.01383,0.00389,758.07779,0.00035,62.81764,47.96421,0,7.99909,0.60191,990.04724
2.04406,105.90403,-20.30035,0.02738,0.01153,0,0.02057,-0.00537,758.07779,0.00035,62.81696,47.96421,0,7.96648,0.60182,989.92291
2.05406,105.70124,-20.25753,0.02749,0.01069,0,0,0,758.07779,0.00035,62.81631,47.96421,0,7.93402,0.60173,989.79882
2.06406,105.49888,-20.21489,0.02759,0.01014,0,0,0,758.07779,0.00035,62.81558,47.96421,0,7.9017,0.60164,989.67497
2.07406,105.29694,-20.17244,0.02769,0.00953,0,0,0,758.07779,0.00035,62.81465,47.96421,0,7.86952,0.60155,989.55136
2.08406,105.09543,-20.13019,0.02778,0.00908,0,-0.02101,-0.01698,758.07779,0.00035,62.81369,47.96421,0,7.83749,0.60147,989.42798
2.09406,104.89434,-20.08811,0.02787,0.0089,0,-0.01312,-0.00638,758.07779,0.00035,62.81277,47.96421,0,7.8056,0.60138,989.30484
2.10406,104.69367,-20.04623,0.02795,0.00878,0,-0.00927,-0.00999,758.07779,0.00035,62.81189,47.96421,0,7.77385,0.60129,989.18193
2.11406,104.49341,-20.00453,0.02803,0.0088,0,0.00418,-0.00609,758.07779,0.00035,62.81108,47.96421,0,7.74224,0.6012,989.05926
2.12406,104.29357,-19.96301,0.02811,0.00886,0,0.01756,-0.00466,758.07779,0.00035,62.81033,47.96421,0,7.71077,0.60112,988.93682
2.13406,104.09415,-19.92168,0.0282,0.00896,0,0.02541,-0.0079,758.07779,0.00035,62.80965,47.96421,0,7.67944,0.60103,988.81462
2.14406,103.89514,-19.88053,0.02829,0.00923,0,0.0341,-0.00607,758.07779,0.00035,62.80902,47.96421,0,7.64824,0.60094,988.69265
2.15406,103.69654,-19.83955,0.02838,0.00973,0,0,0,758.07779,0.00035,62.80843,47.96421,0,7.61718,0.60086,988.57092
2.16406,103.49835,-19.79876,0.02848,0.01029,0,0,0,758.07779,0.00035,62.80785,47.96421,0,7.58626,0.60077,988.44942
2.17406,103.30056,-19.75815,0.02859,0.01097,0,0,0,758.07779,0.00035,62.80699,47.96421,0,7.55548,0.60069,988.32815
2.18406,103.10319,-19.71771,0.0287,0.01149,0,0,0,758.07779,0.00035,62.80608,47.96421,0,7.52483,0.6006,988.20711
2.19406,102.90621,-19.67745,0.02882,0.01188,0,-0.02654,0.01034,758.07779,0.00035,62.80522,47.96421,0,7.49431,0.60052,988.0863
2.20406,102.70964,-19.63737,0.02894,0.01235,0,-0.02151,0.01191,758.07779,0.00035,62.80436,47.96421,0,7.46392,0.60044,987.96572
2.21406,102.51346,-19.59746,0.02906,0.01254,0,-0.00949,0.00445,758.07779,0.00035,62.80357,47.96421,0,7.43367,0.60035,987.84538
2.22406,102.31769,-19.55772,0.02918,0.01253,0,-0.001,0.00906,758.07779,0.00035,62.80283,47.96421,0,7.40355,0.60027,987.72526
2.23406,102.12231,-19.51816,0.0293,0.01217,0,0.00499,0.01339,758.07779,0.00035,62.80214,47.96421,0,7.37356,0.60019,987.60537
2.24406,101.92732,-19.47876,0.02942,0.01163,0,0.01853,0.00677,758.07779,0.00035,62.80153,47.96421,0,7.3437,0.6001,987.48572
2.25406,101.73273,-19.43954,0.02954,0.01105,0,0,0,758.07779,0.00035,62.80094,47.96421,0,7.31397,0.60002,987.36629
2.26406,101.53853,-19.40049,0.02964,0.01032,0,0,0,758.07779,0.00035,62.80039,47.96421,0,7.28436,0.59994,987.24709
2.27406,101.34472,-19.3616,0.02974,0.00958,0,0,0,758.07779,0.00035,62.79954,47.96421,0,7.25489,0.59986,987.12811
2.28406,101.1513,-19.32289,0.02983,0.00909,0,0,0,758.07779,0.00035,62.79865,47.96421,0,7.22554,0.59978,987.00936
2.29406,100.95826,-19.28434,0.02992,0.00881,0,-0.01235,-0.0037,758.07779,0.00035,62.79781,47.96421,0,7.19632,0.5997,986.89084
2.30406,100.76561,-19.24595,0.03001,0.0086,0,-0.00796,-0.00453,758.07779,0.00035,62.79701,47.96421,0,7.16722,0.59962,986.77255
2.31406,100.57334,-19.20773,0.03009,0.00851,0,-0.00383,-0.00467,758.07779,0.00035,62.79624,47.96421,0,7.13825,0.59954,986.65448
2.32406,100.38146,-19.16967,0.03017,0.00845,0,0.00946,-0.004,758.07779,0.00035,62.79549,47.96421,0,7.1094,0.59946,986.53664
2.33406,100.18995,-19.13178,0.03025,0.00849,0,0.00877,-0.00189,758.07779,0.00035,62.79482,47.96421,0,7.08068,0.59938,986.41902
2.34406,99.99882,-19.09405,0.03033,0.00849,0,0.01786,-0.00886,758.07779,0.00035,62.79416,47.96421,0,7.05208,0.5993,986.30163
2.35406,99.80807,-19.05648,0.03042,0.00881,0,0.02733,-0.01062,758.07779,0.00035,62.79354,47.96421,0,7.0236,0.59922,986.18446
2.36406,99.61769,-19.01907,0.03051,0.00926,0,0,0,758.07779,0.00035,62.79295,47.96421,0,6.99524,0.59914,986.06751
2.37406,99.42769,-18.98182,0.0306,0.00985,0,0,0,758.07779,0.00035,62.79238,47.96421,0,6.96701,0.59906,985.95079
2.38406,99.23805,-18.94473,0.0307,0.01051,0,0,0,758.07779,0.00035,62.79169,47.96421,0,6.93889,0.59898,985.83429
2.39406,99.04879,-18.90779,0.03081,0.01113,0,0,0,758.07779,0.00035,62.79088,47.96421,0,6.91089,0.5989,985.71801
2.40406,98.8599,-18.87101,0.03093,0.01151,0,-0.02819,-0.00863,758.07779,0.00035,62.79008,47.96421,0,6.88301,0.59883,985.60195
2.41406,98.67137,-18.83439,0.03104,0.01181,0,-0.02606,-0.00696,758.07779,0.00035,62.7893,47.96421,0,6.85525,0.59875,985.48612
2.42406,98.48321,-18.79792,0.03116,0.01198,0,-0.01333,-0.00501,758.07779,0.00035,62.78854,47.96421,0,6.82761,0.59867,985.3705
2.43406,98.29541,-18.76161,0.03128,0.01178,0,-0.00821,-0.00389,758.07779,0.00035,62.78785,47.96421,0,6.80008,0.5986,985.25511
2.44406,98.10798,-18.72544,0.03139,0.01147,0,-0.00486,-0.00351,758.07779,0.00035,62.78721,47.96421,0,6.77267,0.59852,985.13993
2.45406,97.9209,-18.68944,0.0315,0.0109,0,0.00652,-0.00573,758.07779,0.00035,62.78658,47.96421,0,6.74538,0.59845,985.02498
2.46406,97.73419,-18.65358,0.03161,0.01026,0,0,0,758.07779,0.00035,62.78598,47.96421,0,6.71819,0.59837,984.91024
2.47406,97.54783,-18.61787,0.03171,0.00959,0,0,0,758.07779,0.00035,62.78537,47.96421,0,6.69113,0.5983,984.79573
2.48406,97.36183,-18.58231,0.0318,0.00904,0,0,0,758.07779,0.00035,62.78472,47.96421,0,6.66418,0.59822,984.68143
2.49406,97.17618,-18.5469,0.03189,0.00858,0,0,0,758.07779,0.00035,62.78406,47.96421,0,6.63734,0.59815,984.56735
2.50406,96.99089,-18.51164,0.03197,0.00835,0,0,0,758.07779,0.00035,62.78339,47.96421,0,6.61061,0.59807,984.45349
2.51406,96.80595,-18.47653,0.03205,0.00814,0,0,0,758.07779,0.00035,62.78269,47.96421,0,6.58399,0.598,984.33984
2.52406,96.62136,-18.44157,0.03213,0.00811,0,0,0,758.07779,0.00035,62.78201,47.96421,0,6.55749,0.59792,984.22641
2.53406,96.43712,-18.40675,0.03221,0.00813,0,0,0,758.07779,0.00035,62.78133,47.96421,0,6.53109,0.59785,984.1132
2.54406,96.25322,-18.37207,0.03229,0.0083,0,0,0,758.07779,0.00035,62.78067,47.96421,0,6.50481,0.59778,984.0002
2.55406,96.06968,-18.33754,0.03238,0.00836,0,0,0,758.07779,0.00035,62.78001,47.96421,0,6.47863,0.5977,983.88742
2.56406,95.88647,-18.30315,0.03246,0.00871,0,0,0,758.07779,0.00035,62.77939,47.96421,0,6.45257,0.59763,983.77485
2.57406,95.70361,-18.26891,0.03255,0.00911,0,0,0,758.07779,0.00035,62.77878,47.96421,0,6.42661,0.59756,983.6625
2.58406,95.52109,-18.2348,0.03264,0.00954,0,0,0,758.07779,0.00035,62.77817,47.96421,0,6.40076,0.59749,983.55037
2.59406,95.33892,-18.20084,0.03274,0.00998,0,0,0,758.07779,0.00035,62.77751,47.96421,0,6.37501,0.59742,983.43844
2.60406,95.15708,-18.16702,0.03284,0.01034,0,0,0,758.07779,0.00035,62.77684,47.96421,0,6.34938,0.59734,983.32673
2.61406,94.97558,-18.13333,0.03295,0.01055,0,0,0,758.07779,0.00035,62.77619,47.96421,0,6.32384,0.59727,983.21524
2.62406,94.79441,-18.09979,0.03305,0.01061,0,0,0,758.07779,0.00035,62.77554,47.96421,0,6.29842,0.5972,983.10395
2.63406,94.61358,-18.06639,0.03316,0.01052,0,0,0,758.07779,0.00035,62.77491,47.96421,0,6.2731,0.59713,982.99288
2.64406,94.43308,-18.03312,0.03326,0.01038,0,0,0,758.07779,0.00035,62.77429,47.96421,0,6.24788,0.59706,982.88202
2.65406,94.25292,-17.99998,0.03336,0.01005,0,0,0,758.07779,0.00035,62.77372,47.96421,0,6.22276,0.59699,982.77137
2.66406,94.07308,-17.96699,0.03346,0.00974,0,0,0,758.07779,0.00035,62.77314,47.96421,0,6.19775,0.59692,982.66093
2.67406,93.89358,-17.93413,0.03356,0.00943,0,0,0,758.07779,0.00035,62.77256,47.96421,0,6.17284,0.59685,982.55071
2.68406,93.7144,-17.9014,0.03365,0.00913,0,0,0,758.07779,0.00035,62.77196,47.96421,0,6.14804,0.59678,982.44069
2.69406,93.53555,-17.86881,0.03374,0.00884,0,0,0,758.07779,0.00035,62.77133,47.96421,0,6.12333,0.59671,982.33088
2.70406,93.35702,-17.83635,0.03383,0.00856,0,0,0,758.07779,0.00035,62.77067,47.96421,0,6.09873,0.59665,982.22129
2.71406,93.17882,-17.80402,0.03391,0.00828,0,0,0,758.07779,0.00035,62.77001,47.96421,0,6.07422,0.59658,982.1119
2.72406,93.00094,-17.77183,0.03399,0.00801,0,0,0,758.07779,0.00035,62.76935,47.96421,0,6.04982,0.59651,982.00272
2.73406,92.82338,-17.73976,0.03407,0.00774,0,0,0,758.07779,0.00035,62.76869,47.96421,0,6.02551,0.59644,981.89375
2.74406,92.64615,-17.70783,0.03415,0.00768,0,0,0,758.07779,0.00035,62.76808,47.96421,0,6.0013,0.59637,981.78499
2.75406,92.46923,-17.67602,0.03423,0.00771,0,0,0,758.07779,0.00035,62.76749,47.96421,0,5.9772,0.59631,981.67643
2.76406,92.29262,-17.64434,0.0343,0.00783,0,0,0,758.07779,0.00035,62.7669,47.96421,0,5.95319,0.59624,981.56809
2.77406,92.11634,-17.6128,0.03438,0.0081,0,0,0,758.07779,0.00035,62.76633,47.96421,0,5.92927,0.59617,981.45995
2.78406,91.94037,-17.58138,0.03446,0.00852,0,0,0,758.07779,0.00035,62.76574,47.96421,0,5.90545,0.59611,981.35201
2.79406,91.76471,-17.55008,0.03455,0.00888,0,0,0,758.07779,0.00035,62.76511,47.96421,0,5.88173,0.59604,981.24428
2.80406,91.58937,-17.51892,0.03464,0.00937,0,0,0,758.07779,0.00035,62.76447,47.96421,0,5.85811,0.59597,981.13676
2.81406,91.41433,-17.48787,0.03474,0.00975,0,0,0,758.07779,0.00035,62.76383,47.96421,0,5.83458,0.59591,981.02945
2.82406,91.23961,-17.45696,0.03483,0.0099,0,0,0,758.07779,0.00035,62.76321,47.96421,0,5.81114,0.59584,980.92234
2.83406,91.06519,-17.42617,0.03493,0.01015,0,-0.01026,-0.01708,758.07779,0.00035,62.76259,47.96421,0,5.7878,0.59578,980.81543
2.84406,90.89108,-17.3955,0.03504,0.01017,0,-0.01165,-0.01394,758.07779,0.00035,62.76202,47.96421,0,5.76455,0.59571,980.70873
2.85406,90.71728,-17.36495,0.03514,0.01026,0,-0.00453,-0.01562,758.07779,0.00035,62.76143,47.96421,0,5.7414,0.59565,980.60223
2.86406,90.54379,-17.33453,0.03524,0.01022,0,0,0,758.07779,0.00035,62.76087,47.96421,0,5.71834,0.59558,980.49593
2.87406,90.37059,-17.30422,0.03534,0.00995,0,0,0,758.07779,0.00035,62.76036,47.96421,0,5.69537,0.59552,980.38984
2.88406,90.1977,-17.27404,0.03544,0.00968,0,0,0,758.07779,0.00035,62.75982,47.96421,0,5.67249,0.59546,980.28395
2.89406,90.02511,-17.24398,0.03554,0.00935,0,0,0,758.07779,0.00035,62.75928,47.96421,0,5.64971,0.59539,980.17827
2.90406,89.85282,-17.21404,0.03563,0.00894,0,0,0,758.07779,0.00035,62.7587,47.96421,0,5.62701,0.59533,980.07279
2.91406,89.68083,-17.18422,0.03571,0.00855,0,0,0,758.07779,0.00035,62.75808,47.96421,0,5.60441,0.59527,979.9675
2.92406,89.50914,-17.15452,0.0358,0.00812,0,0,0,758.07779,0.00035,62.75744,47.96421,0,5.58189,0.5952,979.86242
2.93406,89.33774,-17.12493,0.03587,0.00781,0,-0.00918,0.00207,758.07779,0.00035,62.75681,47.96421,0,5.55947,0.59514,979.75755
2.94406,89.16664,-17.09547,0.03595,0.00755,0,-0.00163,-0.00211,758.07779,0.00035,62.75622,47.96421,0,5.53713,0.59508,979.65287
2.95406,88.99583,-17.06612,0.03602,0.0073,0,0.00007,-0.00113,758.07779,0.00035,62.75563,47.96421,0,5.51488,0.59501,979.54839
2.96406,88.82531,-17.03688,0.03609,0.00708,0,0.00744,-0.00182,758.07779,0.00035,62.75507,47.96421,0,5.49272,0.59495,979.44411
2.97406,88.65509,-17.00776,0.03616,0.00693,0,0.01717,-0.00124,758.07779,0.00035,62.75451,47.96421,0,5.47065,0.59489,979.34004
2.98406,88.48516,-16.97876,0.03623,0.00702,0,0.0185,-0.00855,758.07779,0.00035,62.75403,47.96421,0,5.44867,0.59483,979.23616
2.99406,88.31552,-16.94987,0.0363,0.00701,0,0,0,758.07779,0.00035,62.75353,47.96421,0,5.42677,0.59477,979.13248
3.00406,88.14616,-16.9211,0.03637,0.00724,0,0,0,758.07779,0.00035,62.75305,47.96421,0,5.40496,0.59471,979.029
3.01406,87.97709,-16.89243,0.03644,0.00743,0,0,0,758.07779,0.00035,62.75254,47.96421,0,5.38323,0.59465,978.92572
3.02406,87.80831,-16.86389,0.03652,0.00772,0,0,0,758.07779,0.00035,62.75203,47.96421,0,5.36159,0.59458,978.82263
3.03406,87.63981,-16.83545,0.0366,0.00805,0,0,0,758.07779,0.00035,62.75145,47.96421,0,5.34004,0.59452,978.71975
3.04406,87.4716,-16.80712,0.03668,0.00836,0,0,0,758.07779,0.00035,62.75087,47.96421,0,5.31857,0.59446,978.61706
3.05406,87.30367,-16.77891,0.03676,0.00865,0,0,0,758.07779,0.00035,62.75028,47.96421,0,5.29718,0.5944,978.51457
3.06406,87.13602,-16.75081,0.03685,0.00897,0,0,0,758.07779,0.00035,62.74969,47.96421,0,5.27588,0.59434,978.41228
3.07406,86.96866,-16.72282,0.03694,0.00913,0,0,0,758.07779,0.00035,62.74913,47.96421,0,5.25466,0.59429,978.31018
3.08406,86.80157,-16.69493,0.03703,0.00938,0,-0.00626,-0.01517,758.07779,0.00035,62.74857,47.96421,0,5.23352,0.59423,978.20828
3.09406,86.63476,-16.66716,0.03713,0.00943,0,0,0,758.07779,0.00035,62.74804,47.96421,0,5.21247,0.59417,978.10657
3.10406,86.46822,-16.63949,0.03722,0.00948,0,0,0,758.07779,0.00035,62.74753,47.96421,0,5.1915,0.59411,978.00506
3.11406,86.30197,-16.61193,0.03731,0.00947,0,0,0,758.07779,0.00035,62.74702,47.96421,0,5.17061,0.59405,977.90374
3.12406,86.13598,-16.58448,0.03741,0.0094,0,0,0,758.07779,0.00035,62.74651,47.96421,0,5.1498,0.59399,977.80262
3.13406,85.97028,-16.55714,0.0375,0.00933,0,0,0,758.07779,0.00035,62.746,47.96421,0,5.12907,0.59393,977.7017
3.14406,85.80484,-16.5299,0.0376,0.00921,0,0,0,758.07779,0.00035,62.74548,47.96421,0,5.10843,0.59387,977.60097
3.15406,85.63968,-16.50277,0.03769,0.00907,0,0,0,758.07779,0.00035,62.74497,47.96421,0,5.08786,0.59382,977.50043
3.16406,85.47479,-16.47574,0.03778,0.00886,0,0,0,758.07779,0.00035,62.74446,47.96421,0,5.06737,0.59376,977.40008
3.17406,85.31016,-16.44882,0.03786,0.00858,0,0,0,758.07779,0.00035,62.74395,47.96421,0,5.04697,0.5937,977.29993
3.18406,85.14581,-16.422,0.03795,0.00833,0,0,0,758.07779,0.00035,62.74346,47.96421,0,5.02664,0.59364,977.19998
3.19406,84.98172,-16.39528,0.03803,0.00807,0,0,0,758.07779,0.00035,62.74296,47.96421,0,5.00639,0.59359,977.10021
3.20406,84.8179,-16.36867,0.03811,0.00781,0,0,0,758.07779,0.00035,62.74245,47.96421,0,4.98622,0.59353,977.00064
3.21406,84.65435,-16.34216,0.03818,0.00756,0,0,0,758.07779,0.00035,62.74193,47.96421,0,4.96612,0.59347,976.90126
3.22406,84.49106,-16.31576,0.03826,0.00731,0,0,0,758.07779,0.00035,62.74139,47.96421,0,4.94611,0.59342,976.80207
3.23406,84.32803,-16.28945,0.03833,0.00707,0,0,0,758.07779,0.00035,62.74085,47.96421,0,4.92617,0.59336,976.70307
3.24406,84.16527,-16.26325,0.0384,0.00684,0,0,0,758.07779,0.00035,62.74034,47.96421,0,4.90631,0.59331,976.60426
3.25406,84.00277,-16.23714,0.03846,0.00662,0,0,0,758.07779,0.00035,62.73981,47.96421,0,4.88652,0.59325,976.50564
3.26406,83.84053,-16.21114,0.03853,0.00657,0,0,0,758.07779,0.00035,62.73932,47.96421,0,4.86681,0.5932,976.40722
3.27406,83.67855,-16.18524,0.03859,0.00661,0,0,0,758.07779,0.00035,62.73884,47.96421,0,4.84717,0.59314,976.30898
3.28406,83.51682,-16.15944,0.03866,0.00675,0,0,0,758.07779,0.00035,62.73838,47.96421,0,4.82762,0.59308,976.21094
3.29406,83.35536,-16.13373,0.03873,0.00697,0,0,0,758.07779,0.00035,62.73791,47.96421,0,4.80813,0.59303,976.11308
3.30406,83.19415,-16.10812,0.0388,0.00724,0,0,0,758.07779,0.00035,62.73743,47.96421,0,4.78872,0.59298,976.01541
3.31406,83.03319,-16.08262,0.03887,0.00754,0,0,0,758.07779,0.00035,62.73693,47.96421,0,4.76939,0.59292,975.91793
3.32406,82.87249,-16.05721,0.03895,0.0078,0,0,0,758.07779,0.00035,62.73639,47.96421,0,4.75012,0.59287,975.82064
3.33406,82.71205,-16.03189,0.03903,0.00805,0,0,0,758.07779,0.00035,62.73586,47.96421,0,4.73094,0.59281,975.72354
3.34406,82.55186,-16.00667,0.03911,0.00823,0,0,0,758.07779,0.00035,62.73535,47.96421,0,4.71182,0.59276,975.62663
3.35406,82.39192,-15.98155,0.03919,0.00833,0,0,0,758.07779,0.00035,62.73484,47.96421,0,4.69278,0.59271,975.5299
3.36406,82.23222,-15.95653,0.03928,0.00844,0,0,0,758.07779,0.00035,62.73436,47.96421,0,4.67381,0.59265,975.43337
3.37406,82.07278,-15.93159,0.03936,0.00841,0,0,0,758.07779,0.00035,62.7339,47.96421,0,4.65491,0.5926,975.33701
3.38406,81.91359,-15.90676,0.03944,0.00845,0,0,0,758.07779,0.00035,62.73344,47.96421,0,4.63609,0.59255,975.24085
3.39406,81.75465,-15.88202,0.03953,0.00847,0,0,0,758.07779,0.00035,62.73298,47.96421,0,4.61733,0.59249,975.14487
3.40406,81.59595,-15.85737,0.03961,0.00841,0,0,0,758.07779,0.00035,62.73255,47.96421,0,4.59865,0.59244,975.04908
3.41406,81.4375,-15.83281,0.0397,0.00832,0,0,0,758.07779,0.00035,62.7321,47.96421,0,4.58003,0.59239,974.95348
3.42406,81.2793,-15.80835,0.03978,0.0082,0,0,0,758.07779,0.00035,62.73164,47.96421,0,4.56149,0.59234,974.85806
3.43406,81.12133,-15.78398,0.03986,0.00805,0,0,0,758.07779,0.00035,62.73117,47.96421,0,4.54302,0.59228,974.76282
3.44406,80.96362,-15.7597,0.03994,0.00791,0,0,0,758.07779,0.00035,62.73069,47.96421,0,4.52462,0.59223,974.66777
3.45406,80.80614,-15.73552,0.04002,0.00772,0,0,0,758.07779,0.00035,62.73018,47.96421,0,4.50628,0.59218,974.57291
3.46406,80.64891,-15.71142,0.04009,0.00756,0,0,0,758.07779,0.00035,62.72968,47.96421,0,4.48802,0.59213,974.47823
3.47406,80.49191,-15.68742,0.04017,0.00742,0,0,0,758.07779,0.00035,62.7292,47.96421,0,4.46982,0.59208,974.38373
3.48406,80.33516,-15.6635,0.04024,0.00718,0,0,0,758.07779,0.00035,62.72874,47.96421,0,4.4517,0.59203,974.28942
3.49406,80.17864,-15.63968,0.04031,0.00684,0,0,0,758.07779,0.00035,62.72827,47.96421,0,4.43364,0.59197,974.19529
3.50406,80.02236,-15.61594,0.04037,0.00662,0,0,0,758.07779,0.00035,62.72778,47.96421,0,4.41565,0.59192,974.10135
3.51406,79.86632,-15.5923,0.04044,0.00655,0,0,0,758.07779,0.00035,62.72733,47.96421,0,4.39772,0.59187,974.00759
3.52406,79.71052,-15.56874,0.0405,0.00644,0,0,0,758.07779,0.00035,62.72689,47.96421,0,4.37987,0.59182,973.91401
3.53406,79.55495,-15.54527,0.04057,0.00639,0,0,0,758.07779,0.00035,62.72645,47.96421,0,4.36208,0.59177,973.82061
3.54406,79.39961,-15.52189,0.04063,0.00639,0,0,0,758.07779,0.00035,62.72603,47.96421,0,4.34436,0.59172,973.7274
3.55406,79.24451,-15.4986,0.04069,0.00643,0,0,0,758.07779,0.00035,62.72561,47.96421,0,4.3267,0.59167,973.63437
3.56406,79.08964,-15.47539,0.04076,0.00651,0,0,0,758.07779,0.00035,62.72519,47.96421,0,4.30911,0.59162,973.54152
3.57406,78.935,-15.45227,0.04082,0.00661,0,0,0,758.07779,0.00035,62.72476,47.96421,0,4.29159,0.59157,973.44885
3.58406,78.78059,-15.42924,0.04089,0.0068,0,0,0,758.07779,0.00035,62.72433,47.96421,0,4.27413,0.59152,973.35636
3.59406,78.62642,-15.40629,0.04096,0.00697,0,0,0,758.07779,0.00035,62.72387,47.96421,0,4.25673,0.59148,973.26406
3.60406,78.47247,-15.38343,0.04103,0.00713,0,0,0,758.07779,0.00035,62.72343,47.96421,0,4.2394,0.59143,973.17193
3.61406,78.31875,-15.36065,0.0411,0.00729,0,0,0,758.07779,0.00035,62.72296,47.96421,0,4.22214,0.59138,973.07999
3.62406,78.16525,-15.33796,0.04117,0.0074,0,0,0,758.07779,0.00035,62.72251,47.96421,0,4.20494,0.59133,972.98822
3.63406,78.01199,-15.31535,0.04125,0.00747,0,0,0,758.07779,0.00035,62.72207,47.96421,0,4.1878,0.59128,972.89664
3.64406,77.85895,-15.29283,0.04132,0.00748,0,0,0,758.07779,0.00035,62.72165,47.96421,0,4.17073,0.59123,972.80523
3.65406,77.70613,-15.27039,0.0414,0.00751,0,0,0,758.07779,0.00035,62.72123,47.96421,0,4.15372,0.59118,972.71401
3.66406,77.55354,-15.24803,0.04147,0.0075,0,0,0,758.07779,0.00035,62.72081,47.96421,0,4.13677,0.59114,972.62296
3.67406,77.40117,-15.22575,0.04155,0.0075,0,0,0,758.07779,0.00035,62.72038,47.96421,0,4.11989,0.59109,972.53209
3.68406,77.24902,-15.20356,0.04162,0.00745,0,0,0,758.07779,0.00035,62.71996,47.96421,0,4.10306,0.59104,972.4414
3.69406,77.0971,-15.18145,0.0417,0.00733,0,0,0,758.07779,0.00035,62.71954,47.96421,0,4.0863,0.59099,972.35089
3.70406,76.94539,-15.15942,0.04177,0.0072,0,0,0,758.07779,0.00035,62.7191,47.96421,0,4.06961,0.59095,972.26056
3.71406,76.79391,-15.13748,0.04184,0.00709,0,0,0,758.07779,0.00035,62.71864,47.96421,0,4.05297,0.5909,972.1704
3.72406,76.64264,-15.11561,0.04191,0.0069,0,0,0,758.07779,0.00035,62.71817,47.96421,0,4.0364,0.59085,972.08043
3.73406,76.4916,-15.09382,0.04198,0.00672,0,0,0,758.07779,0.00035,62.7177,47.96421,0,4.01988,0.59081,971.99063
3.74406,76.34077,-15.07212,0.04204,0.00653,0,0,0,758.07779,0.00035,62.71726,47.96421,0,4.00343,0.59076,971.901
3.75406,76.19015,-15.05049,0.04211,0.00642,0,0,0,758.07779,0.00035,62.71681,47.96421,0,3.98704,0.59071,971.81156
3.76406,76.03976,-15.02895,0.04217,0.0062,0,0,0,758.07779,0.00035,62.71636,47.96421,0,3.97071,0.59067,971.72229
3.77406,75.88957,-15.00748,0.04223,0.00615,0,0,0,758.07779,0.00035,62.71594,47.96421,0,3.95443,0.59062,971.63319
3.78406,75.73961,-14.98609,0.04229,0.0061,0,0,0,758.07779,0.00035,62.71554,47.96421,0,3.93822,0.59057,971.54427
3.79406,75.58985,-14.96478,0.04235,0.00609,0,0,0,758.07779,0.00035,62.71515,47.96421,0,3.92207,0.59053,971.45553
3.80406,75.44031,-14.94355,0.04241,0.00612,0,0,0,758.07779,0.00035,62.71477,47.96421,0,3.90598,0.59048,971.36697
3.81406,75.29098,-14.9224,0.04247,0.00619,0,0,0,758.07779,0.00035,62.71439,47.96421,0,3.88994,0.59044,971.27857
3.82406,75.14186,-14.90132,0.04253,0.00623,0,0,0,758.07779,0.00035,62.71401,47.96421,0,3.87397,0.59039,971.19036
3.83406,74.99296,-14.88032,0.0426,0.00627,0,0,0,758.07779,0.00035,62.71364,47.96421,0,3.85805,0.59035,971.10232
3.84406,74.84426,-14.8594,0.04266,0.00633,0,0,0,758.07779,0.00035,62.71326,47.96421,0,3.84219,0.5903,971.01445
3.85406,74.69577,-14.83855,0.04272,0.00641,0,0,0,758.07779,0.00035,62.7129,47.96421,0,3.82639,0.59026,970.92676
3.86406,74.54749,-14.81778,0.04279,0.0065,0,0,0,758.07779,0.00035,62.71251,47.96421,0,3.81065,0.59021,970.83924
3.87406,74.39941,-14.79709,0.04285,0.00653,0,0,0,758.07779,0.00035,62.71211,47.96421,0,3.79496,0.59017,970.75189
3.88406,74.25154,-14.77647,0.04292,0.00663,0,0,0,758.07779,0.00035,62.71168,47.96421,0,3.77933,0.59012,970.66472
3.89406,74.10388,-14.75593,0.04299,0.00673,0,0,0,758.07779,0.00035,62.71126,47.96421,0,3.76376,0.59008,970.57772
3.90406,73.95642,-14.73546,0.04305,0.00677,0,0,0,758.07779,0.00035,62.71084,47.96421,0,3.74824,0.59004,970.4909
3.91406,73.80917,-14.71506,0.04312,0.00684,0,0,0,758.07779,0.00035,62.71039,47.96421,0,3.73278,0.58999,970.40425
3.92406,73.66212,-14.69474,0.04319,0.00692,0,0,0,758.07779,0.00035,62.70995,47.96421,0,3.71738,0.58995,970.31777
3.93406,73.51528,-14.6745,0.04326,0.00693,0,0,0,758.07779,0.00035,62.70954,47.96421,0,3.70203,0.58991,970.23146
3.94406,73.36863,-14.65432,0.04333,0.00699,0,0,0,758.07779,0.00035,62.70912,47.96421,0,3.68674,0.58986,970.14532
3.95406,73.22219,-14.63422,0.0434,0.00699,0,0,0,758.07779,0.00035,62.70873,47.96421,0,3.67151,0.58982,970.05936
3.96406,73.07595,-14.61419,0.04347,0.00698,0,0,0,758.07779,0.00035,62.70833,47.96421,0,3.65633,0.58978,969.97357
3.97406,72.92991,-14.59424,0.04354,0.00698,0,0,0,758.07779,0.00035,62.70795,47.96421,0,3.6412,0.58973,969.88795
3.98406,72.78406,-14.57436,0.04361,0.0069,0,0,0,758.07779,0.00035,62.70759,47.96421,0,3.62613,0.58969,969.8025
3.99406,72.63842,-14.55455,0.04367,0.00684,0,0,0,758.07779,0.00035,62.70723,47.96421,0,3.61111,0.58965,969.71722
4.00406,72.49297,-14.53481,0.04374,0.00678,0,0,0,758.07779,0.00035,62.70688,47.96421,0,3.59615,0.58961,969.63212
4.01406,72.34772,-14.51514,0.04381,0.0067,0,0,0,758.07779,0.00035,62.70653,47.96421,0,3.58124,0.58956,969.54718
4.02406,72.20267,-14.49554,0.04387,0.0066,0,0,0,758.07779,0.00035,62.70618,47.96421,0,3.56639,0.58952,969.46241
4.03406,72.05781,-14.47602,0.04394,0.00648,0,0,0,758.07779,0.00035,62.70581,47.96421,0,3.55159,0.58948,969.37782
4.04406,71.91315,-14.45656,0.044,0.00643,0,0,0,758.07779,0.00035,62.70539,47.96421,0,3.53684,0.58944,969.29339
4.05406,71.76868,-14.43718,0.04407,0.00633,0,0,0,758.07779,0.00035,62.70495,47.96421,0,3.52215,0.5894,969.20913
4.06406,71.6244,-14.41786,0.04413,0.00632,0,0,0,758.07779,0.00035,62.70451,47.96421,0,3.50751,0.58935,969.12504
4.07406,71.48032,-14.39861,0.04419,0.00626,0,0,0,758.07779,0.00035,62.70409,47.96421,0,3.49292,0.58931,969.04112
4.08406,71.33643,-14.37944,0.04426,0.00622,0,0,0,758.07779,0.00035,62.70367,47.96421,0,3.47838,0.58927,968.95737
4.09406,71.19273,-14.36033,0.04432,0.00618,0,0,0,758.07779,0.00035,62.70328,47.96421,0,3.4639,0.58923,968.87379
4.10406,71.04923,-14.34129,0.04438,0.00617,0,0,0,758.07779,0.00035,62.70289,47.96421,0,3.44947,0.58919,968.79038
4.11406,70.90591,-14.32232,0.04444,0.00612,0,0,0,758.07779,0.00035,62.7025,47.96421,0,3.43509,0.58915,968.70713
4.12406,70.76278,-14.30342,0.0445,0.00606,0,0,0,758.07779,0.00035,62.70213,47.96421,0,3.42076,0.58911,968.62406
4.13406,70.61984,-14.28458,0.04456,0.00606,0,0,0,758.07779,0.00035,62.70178,47.96421,0,3.40648,0.58907,968.54115
4.14406,70.47709,-14.26581,0.04462,0.00602,0,0,0,758.07779,0.00035,62.70144,47.96421,0,3.39226,0.58903,968.45841
4.15406,70.33452,-14.24711,0.04468,0.00599,0,0,0,758.07779,0.00035,62.70109,47.96421,0,3.37808,0.58899,968.37583
4.16406,70.19214,-14.22848,0.04474,0.00598,0,0,0,758.07779,0.00035,62.70076,47.96421,0,3.36396,0.58895,968.29343
4.17406,70.04995,-14.20991,0.04479,0.00598,0,0,0,758.07779,0.00035,62.70045,47.96421,0,3.34988,0.58891,968.21119
4.18406,69.90795,-14.19141,0.04485,0.00596,0,0,0,758.07779,0.00035,62.70015,47.96421,0,3.33586,0.58887,968.12911
4.19406,69.76612,-14.17298,0.04491,0.006,0,0,0,758.07779,0.00035,62.69984,47.96421,0,3.32189,0.58883,968.04721
4.20406,69.62449,-14.15461,0.04498,0.00618,0,0,0,758.07779,0.00035,62.69953,47.96421,0,3.30796,0.58879,967.96546
4.21406,69.48303,-14.1363,0.04504,0.00606,0,0,0,758.07779,0.00035,62.69913,47.96421,0,3.29409,0.58875,967.88389
4.22406,69.34176,-14.11807,0.0451,0.00608,0,0,0,758.07779,0.00035,62.69871,47.96421,0,3.28027,0.58871,967.80248
4.23406,69.20067,-14.09989,0.04516,0.00614,0,0,0,758.07779,0.00035,62.69829,47.96421,0,3.26649,0.58867,967.72124
4.24406,69.05976,-14.08178,0.04522,0.00617,0,0,0,758.07779,0.00035,62.69789,47.96421,0,3.25277,0.58863,967.64016
4.25406,68.91903,-14.06374,0.04528,0.00625,0,0,0,758.07779,0.00035,62.69749,47.96421,0,3.23909,0.58859,967.55925
4.26406,68.77849,-14.04576,0.04534,0.00632,0,0,0,758.07779,0.00035,62.6971,47.96421,0,3.22546,0.58855,967.4785
4.27406,68.63812,-14.02785,0.04541,0.00634,0,0,0,758.07779,0.00035,62.69672,47.96421,0,3.21188,0.58851,967.39791
4.28406,68.49793,-14.00999,0.04547,0.00635,0,0,0,758.07779,0.00035,62.69636,47.96421,0,3.19835,0.58848,967.3175
4.29406,68.35792,-13.99221,0.04553,0.00637,0,0,0,758.07779,0.00035,62.696,47.96421,0,3.18487,0.58844,967.23724
4.30406,68.21809,-13.97448,0.0456,0.00636,0,0,0,758.07779,0.00035,62.69566,47.96421,0,3.17143,0.5884,967.15715
4.31406,68.07843,-13.95682,0.04566,0.00637,0,0,0,758.07779,0.00035,62.69533,47.96421,0,3.15804,0.58836,967.07722
4.32406,67.93895,-13.93922,0.04572,0.00638,0,0,0,758.07779,0.00035,62.69498,47.96421,0,3.1447,0.58832,966.99746
4.33406,67.79964,-13.92168,0.04579,0.00641,0,0,0,758.07779,0.00035,62.69466,47.96421,0,3.13141,0.58829,966.91786
4.34406,67.66052,-13.9042,0.04585,0.00637,0,0,0,758.07779,0.00035,62.69435,47.96421,0,3.11816,0.58825,966.83843
4.35406,67.52156,-13.88679,0.04591,0.00639,0,0,0,758.07779,0.00035,62.69402,47.96421,0,3.10496,0.58821,966.75915
4.36406,67.38278,-13.86944,0.04598,0.00634,0,0,0,758.07779,0.00035,62.69371,47.96421,0,3.09181,0.58817,966.68004
4.37406,67.24417,-13.85215,0.04604,0.00631,0,0,0,758.07779,0.00035,62.69339,47.96421,0,3.0787,0.58814,966.6011
4.38406,67.10574,-13.83492,0.0461,0.00625,0,0,0,758.07779,0.00035,62.69306,47.96421,0,3.06564,0.5881,966.52231
4.39406,66.96747,-13.81775,0.04617,0.0062,0,0,0,758.07779,0.00035,62.6927,47.96421,0,3.05263,0.58806,966.44369
4.40406,66.82938,-13.80064,0.04623,0.0061,0,0,0,758.07779,0.00035,62.69235,47.96421,0,3.03966,0.58803,966.36523
4.41406,66.69146,-13.78359,0.04629,0.00598,0,0,0,758.07779,0.00035,62.69199,47.96421,0,3.02674,0.58799,966.28693
4.42406,66.55371,-13.76661,0.04635,0.00588,0,0,0,758.07779,0.00035,62.69162,47.96421,0,3.01387,0.58795,966.20879
4.43406,66.41613,-13.74968,0.0464,0.00576,0,0,0,758.07779,0.00035,62.69126,47.96421,0,3.00103,0.58792,966.13082
4.44406,66.27872,-13.73281,0.04646,0.00566,0,0,0,758.07779,0.00035,62.69089,47.96421,0,2.98825,0.58788,966.053
4.45406,66.14147,-13.716,0.04652,0.00554,0,0,0,758.07779,0.00035,62.69053,47.96421,0,2.97551,0.58784,965.97535
4.46406,66.00439,-13.69925,0.04657,0.00544,0,0,0,758.07779,0.00035,62.69017,47.96421,0,2.96281,0.58781,965.89786
4.47406,65.86749,-13.68256,0.04662,0.00534,0,0,0,758.07779,0.00035,62.68984,47.96421,0,2.95016,0.58777,965.82052
4.48406,65.73074,-13.66593,0.04667,0.00525,0,0,0,758.07779,0.00035,62.68952,47.96421,0,2.93756,0.58773,965.74335
4.49406,65.59417,-13.64936,0.04673,0.00514,0,0,0,758.07779,0.00035,62.68919,47.96421,0,2.92499,0.5877,965.66634
4.50406,65.45776,-13.63285,0.04678,0.00508,0,0,0,758.07779,0.00035,62.68888,47.96421,0,2.91248,0.58766,965.58949
4.51406,65.32151,-13.61639,0.04683,0.005,0,0,0,758.07779,0.00035,62.68857,47.96421,0,2.9,0.58763,965.5128
4.52406,65.18543,-13.59999,0.04688,0.00497,0,0,0,758.07779,0.00035,62.68828,47.96421,0,2.88757,0.58759,965.43627
4.53406,65.04951,-13.58365,0.04693,0.00496,0,0,0,758.07779,0.00035,62.68798,47.96421,0,2.87519,0.58756,965.3599
4.54406,64.91375,-13.56737,0.04698,0.00497,0,0,0,758.07779,0.00035,62.68768,47.96421,0,2.86284,0.58752,965.28368
4.55406,64.77816,-13.55114,0.04703,0.00498,0,0,0,758.07779,0.00035,62.68735,47.96421,0,2.85054,0.58749,965.20763
4.56406,64.64273,-13.53497,0.04708,0.005,0,0,0,758.07779,0.00035,62.68702,47.96421,0,2.83829,0.58745,965.13174
4.57406,64.50746,-13.51886,0.04713,0.00504,0,0,0,758.07779,0.00035,62.68668,47.96421,0,2.82607,0.58742,965.056
4.58406,64.37235,-13.5028,0.04718,0.00512,0,0,0,758.07779,0.00035,62.68636,47.96421,0,2.8139,0.58738,964.98042
4.59406,64.23741,-13.4868,0.04723,0.0052,0,0,0,758.07779,0.00035,62.68603,47.96421,0,2.80178,0.58735,964.905
4.60406,64.10262,-13.47086,0.04728,0.00528,0,0,0,758.07779,0.00035,62.68571,47.96421,0,2.78969,0.58731,964.82974
4.61406,63.96799,-13.45497,0.04733,0.00538,0,0,0,758.07779,0.00035,62.68539,47.96421,0,2.77765,0.58728,964.75464
4.62406,63.83352,-13.43913,0.04739,0.00545,0,0,0,758.07779,0.00035,62.68507,47.96421,0,2.76565,0.58725,964.6797
4.63406,63.69921,-13.42336,0.04744,0.00555,0,0,0,758.07779,0.00035,62.68476,47.96421,0,2.75369,0.58721,964.60491
4.64406,63.56505,-13.40763,0.0475,0.00564,0,0,0,758.07779,0.00035,62.68447,47.96421,0,2.74177,0.58718,964.53028
4.65406,63.43105,-13.39197,0.04755,0.00571,0,0,0,758.07779,0.00035,62.68416,47.96421,0,2.72989,0.58714,964.45581
4.66406,63.29721,-13.37635,0.04761,0.00578,0,0,0,758.07779,0.00035,62.68386,47.96421,0,2.71806,0.58711,964.38149
4.67406,63.16353,-13.3608,0.04767,0.00584,0,0,0,758.07779,0.00035,62.68356,47.96421,0,2.70627,0.58708,964.30733
